{"type":"FeatureCollection","features":[{"type":"Feature","properties":{"":1,"City Name":" Wailea","State":" Hawaii","County":"Hawaii County"," Caseload":11032},"geometry":{"type":"Point","coordinates":[-156.4392245,20.6899733]}},{"type":"Feature","properties":{"":2,"City Name":" Cambria","State":" California","County":"San Luis Obispo County"," Caseload":30291},"geometry":{"type":"Point","coordinates":[-121.08074,35.5641381]}},{"type":"Feature","properties":{"":3,"City Name":" Springdale","State":" Utah","County":"Washington County"," Caseload":28923},"geometry":{"type":"Point","coordinates":[-112.998588,37.188931]}},{"type":"Feature","properties":{"":4,"City Name":" Quebec City","State":" Quebec","County":"Quebec/Province"," Caseload":424802},"geometry":{"type":"Point","coordinates":[-71.210034,46.814255]}},{"type":"Feature","properties":{"":5,"City Name":" Ashland","State":" Oregon","County":"Jackson County"," Caseload":23433},"geometry":{"type":"Point","coordinates":[-122.709393,42.194361]}},{"type":"Feature","properties":{"":6,"City Name":" Calgary","State":" Alberta","County":"Alberta/Province"," Caseload":119506},"geometry":{"type":"Point","coordinates":[-114.071519,51.044827]}},{"type":"Feature","properties":{"":7,"City Name":" Victoria","State":" British Columbia","County":"British Columbia/Province"," Caseload":204914},"geometry":{"type":"Point","coordinates":[-123.35,48.43333]}},{"type":"Feature","properties":{"":8,"City Name":" Sedona","State":" Arizona","County":"Yavapai County"," Caseload":28335},"geometry":{"type":"Point","coordinates":[-111.760978,34.869691]}},{"type":"Feature","properties":{"":9,"City Name":" Cambridge","State":" Massachusetts","County":"Middlesex County"," Caseload":159612},"geometry":{"type":"Point","coordinates":[-71.110046,42.374911]}},{"type":"Feature","properties":{"":10,"City Name":" Minneapolis","State":" Minnesota","County":"Hennepin County"," Caseload":156327},"geometry":{"type":"Point","coordinates":[-93.264358,44.977479]}},{"type":"Feature","properties":{"":11,"City Name":" Paso Robles","State":" California","County":"San Luis Obispo County"," Caseload":30291},"geometry":{"type":"Point","coordinates":[-120.658098,35.640191]}},{"type":"Feature","properties":{"":12,"City Name":" Solvang","State":" California","County":"Santa Barbara County"," Caseload":45650},"geometry":{"type":"Point","coordinates":[-120.137922,34.595969]}},{"type":"Feature","properties":{"":13,"City Name":" Bar Harbor","State":" Maine","County":"Hancock County"," Caseload":2851},"geometry":{"type":"Point","coordinates":[-68.204295,44.387552]}},{"type":"Feature","properties":{"":14,"City Name":" Key West","State":" Florida","County":"Monroe County"," Caseload":10520},"geometry":{"type":"Point","coordinates":[-81.780036,24.555057]}},{"type":"Feature","properties":{"":15,"City Name":" Sanibel","State":" Florida","County":"Lee County"," Caseload":124961},"geometry":{"type":"Point","coordinates":[-82.024168,26.450705]}},{"type":"Feature","properties":{"":16,"City Name":" Pittsburgh","State":" Pennsylvania","County":"Allegheny County"," Caseload":131892},"geometry":{"type":"Point","coordinates":[-79.99589,40.440763]}},{"type":"Feature","properties":{"":17,"City Name":" Washington","State":" D.C.","County":"District of Columbia"," Caseload":64240},"geometry":{"type":"Point","coordinates":[-77.036735,38.907045]}},{"type":"Feature","properties":{"":18,"City Name":" Charleston","State":" South Carolina","County":"Charleston County"," Caseload":65233},"geometry":{"type":"Point","coordinates":[-79.931048,32.776473]}},{"type":"Feature","properties":{"":19,"City Name":" Rosemont","State":" Illinois","County":"Cook County"," Caseload":641268},"geometry":{"type":"Point","coordinates":[-87.870528,41.986686]}},{"type":"Feature","properties":{"":20,"City Name":" Montreal","State":" Quebec","County":"Quebec/Province"," Caseload":426457},"geometry":{"type":"Point","coordinates":[-73.567256,45.5016889]}},{"type":"Feature","properties":{"":21,"City Name":" Durango","State":" Colorado","County":"La Plata County"," Caseload":5922},"geometry":{"type":"Point","coordinates":[-107.879996,37.27555]}},{"type":"Feature","properties":{"":22,"City Name":" Vancouver","State":" British Columbia","County":"British Columbia/Province"," Caseload":204914},"geometry":{"type":"Point","coordinates":[-123.1207375,49.2827291]}},{"type":"Feature","properties":{"":23,"City Name":" Kihei","State":" Hawaii","County":"Maui County"," Caseload":9898},"geometry":{"type":"Point","coordinates":[-156.464061,20.784956]}},{"type":"Feature","properties":{"":24,"City Name":" Lahaina","State":" Hawaii","County":"Maui County"," Caseload":9898},"geometry":{"type":"Point","coordinates":[-156.682963,20.878995]}},{"type":"Feature","properties":{"":25,"City Name":" Lihue","State":" Hawaii","County":"Kauai County"," Caseload":2614},"geometry":{"type":"Point","coordinates":[-159.367621,21.981178]}},{"type":"Feature","properties":{"":26,"City Name":" Chicago","State":" Illinois","County":"Cook County"," Caseload":641268},"geometry":{"type":"Point","coordinates":[-87.629309,41.878156]}},{"type":"Feature","properties":{"":27,"City Name":" Asheville","State":" North Carolina","County":"Buncombe County"," Caseload":28191},"geometry":{"type":"Point","coordinates":[-82.55176,35.595009]}},{"type":"Feature","properties":{"":28,"City Name":" Moab","State":" Utah","County":"Grand County"," Caseload":1427},"geometry":{"type":"Point","coordinates":[-109.550776,38.573294]}},{"type":"Feature","properties":{"":29,"City Name":" Seattle","State":" Washington","County":"King County"," Caseload":164221},"geometry":{"type":"Point","coordinates":[-122.332914,47.606098]}},{"type":"Feature","properties":{"":30,"City Name":" Chandler","State":" Arizona","County":"Maricopa County"," Caseload":737103},"geometry":{"type":"Point","coordinates":[-111.841478,33.306224]}},{"type":"Feature","properties":{"":31,"City Name":" Boston","State":" Massachusetts","County":"Suffolk County"," Caseload":107738},"geometry":{"type":"Point","coordinates":[-71.059846,42.359135]}},{"type":"Feature","properties":{"":32,"City Name":" Cleveland","State":" Ohio","County":"Cuyahoga County"," Caseload":148161},"geometry":{"type":"Point","coordinates":[-81.694487,41.499223]}},{"type":"Feature","properties":{"":33,"City Name":" New Orleans","State":" Louisiana","County":"Orleans Parish County"," Caseload":46796},"geometry":{"type":"Point","coordinates":[-90.075713,29.950793]}},{"type":"Feature","properties":{"":34,"City Name":" Treasure Island","State":" Florida","County":"Pinellas County"," Caseload":134378},"geometry":{"type":"Point","coordinates":[-82.769246,27.769063]}},{"type":"Feature","properties":{"":35,"City Name":" Park City","State":" Utah","County":"Summit County"," Caseload":6808},"geometry":{"type":"Point","coordinates":[-111.4979729,40.6460622]}},{"type":"Feature","properties":{"":36,"City Name":" Fargo","State":" North Dakota","County":"Cass County"," Caseload":32212},"geometry":{"type":"Point","coordinates":[-96.789875,46.87694]}},{"type":"Feature","properties":{"":37,"City Name":" Henderson","State":" Nevada","County":"Clark County"," Caseload":339255},"geometry":{"type":"Point","coordinates":[-114.982017,36.039588]}},{"type":"Feature","properties":{"":38,"City Name":" Garden Grove","State":" California","County":"Orange County"," Caseload":326246},"geometry":{"type":"Point","coordinates":[-117.937981,33.774174]}},{"type":"Feature","properties":{"":39,"City Name":" Scottsdale","State":" Arizona","County":"Maricopa County"," Caseload":737103},"geometry":{"type":"Point","coordinates":[-111.926127,33.494978]}},{"type":"Feature","properties":{"":40,"City Name":" Estes Park","State":" Colorado","County":"Larimer County"," Caseload":39807},"geometry":{"type":"Point","coordinates":[-105.521561,40.376647]}},{"type":"Feature","properties":{"":41,"City Name":" Santa Fe","State":" New Mexico","County":"Santa Fe County"," Caseload":13456},"geometry":{"type":"Point","coordinates":[-105.938067,35.686945]}},{"type":"Feature","properties":{"":42,"City Name":" Arlington","State":" Virginia","County":"Hopewell City"," Caseload":3691},"geometry":{"type":"Point","coordinates":[-77.107548,38.879884]}},{"type":"Feature","properties":{"":43,"City Name":" Laguna Beach","State":" California","County":"Orange County"," Caseload":326246},"geometry":{"type":"Point","coordinates":[-117.785349,33.542734]}},{"type":"Feature","properties":{"":44,"City Name":" Newport","State":" Rhode Island","County":"Newport County"," Caseload":8809},"geometry":{"type":"Point","coordinates":[-71.312669,41.489645]}},{"type":"Feature","properties":{"":45,"City Name":" Palm Desert","State":" California","County":"Riverside County"," Caseload":374712},"geometry":{"type":"Point","coordinates":[-116.373749,33.721258]}},{"type":"Feature","properties":{"":46,"City Name":" Avalon","State":" California","County":"Los Angeles County"," Caseload":1491402},"geometry":{"type":"Point","coordinates":[-118.3287135,33.3428995]}},{"type":"Feature","properties":{"":47,"City Name":" Bozeman","State":" Montana","County":"Gallatin County"," Caseload":20680},"geometry":{"type":"Point","coordinates":[-111.038747,45.689288]}},{"type":"Feature","properties":{"":48,"City Name":" La Jolla","State":" California","County":"San Diego County"," Caseload":391534},"geometry":{"type":"Point","coordinates":[-117.2712717,32.8328112]}},{"type":"Feature","properties":{"":49,"City Name":" Portland","State":" Maine","County":"Cumberland County"," Caseload":22078},"geometry":{"type":"Point","coordinates":[-70.25791,43.65835]}},{"type":"Feature","properties":{"":50,"City Name":" Biloxi","State":" Mississippi","County":"Harrison County"," Caseload":34446},"geometry":{"type":"Point","coordinates":[-88.885602,30.392821]}}]}